{
  "data": [
    {
      "name": "가은약국",
      "location": "경기도 고양시 일산서구 탄중로233번길 25, 105호 (탄현동, 외 1필지 양우프라자)",
      "tel": "031-923-6039",
      "lat": "37.6946201979391",
      "lng": "126.770390985359"
    },
    {
      "name": "강선약국",
      "location": "경기도 고양시 일산서구 대산로 117, 101호 (주엽동)",
      "tel": "031-925-1141",
      "lat": "37.6739690190646",
      "lng": "126.764272708341"
    },
    {
      "name": "건강한약국",
      "location": "경기도 고양시 일산서구 일산로 526, 1층 (일산동, 진송빌딩)",
      "tel": "031-916-8645",
      "lat": "37.6772758675055",
      "lng": "126.769602877829"
    },
    {
      "name": "굿모닝약국",
      "location": "경기도 고양시 덕양구 화중로 76, 406호 (화정동, 대감빌딩)",
      "tel": "031-938-9386",
      "lat": "37.6339356817424",
      "lng": "126.831128391342"
    },
    {
      "name": "그레이스온누리약국",
      "location": "경기도 고양시 덕양구 중앙로 548, 102호 (행신동, 현대프라자)",
      "tel": "031-978-8980",
      "lat": "37.6233056206895",
      "lng": "126.836527841613"
    },
    {
      "name": "나무온누리약국",
      "location": "경기도 고양시 일산동구 중산로 105, 107호 (중산동, 현해프라자)",
      "tel": "031-977-9760",
      "lat": "37.68139727074",
      "lng": "126.781325934456"
    },
    {
      "name": "대원약국",
      "location": "경기도 고양시 일산서구 중앙로 1426, 105,106호 (주엽동, 일송노블레스)",
      "tel": "031-911-8301",
      "lat": "37.67031",
      "lng": "126.76191"
    },
    {
      "name": "대화건강약국",
      "location": "경기도 고양시 일산서구 중앙로 1563, 103호 (대화동, 영림브레아)",
      "tel": "031-911-0381",
      "lat": "37.6755328505753",
      "lng": "126.747936557746"
    },
    {
      "name": "동우약국",
      "location": "경기도 고양시 덕양구 화신로260번길 57, 요진타워 305호 (화정동)",
      "tel": "031-970-6318",
      "lat": "37.6336223707871",
      "lng": "126.832745886023"
    },
    {
      "name": "마트약국",
      "location": "경기도 고양시 일산동구 중앙로 1124, 2(일부)층 (백석동, 이마트)",
      "tel": "031-902-8485",
      "lat": "37.6480881663195",
      "lng": "126.78225569195"
    },
    {
      "name": "명보약국",
      "location": "경기도 고양시 덕양구 중앙로472번길 73 (행신동,1층)",
      "tel": "031-938-9600",
      "lat": "37.6224054568703",
      "lng": "126.843922571092"
    },
    {
      "name": "보명약국",
      "location": "경기도 고양시 덕양구 혜음로 9 (고양동)",
      "tel": "031-962-9625",
      "lat": "37.7015575209519",
      "lng": "126.901548892219"
    },
    {
      "name": "보성약국",
      "location": "경기도 고양시 덕양구 삼송로 189-7 (삼송동)",
      "tel": "02-381-8484",
      "lat": "37.6538757296575",
      "lng": "126.894740454143"
    },
    {
      "name": "보영약국",
      "location": "경기도 고양시 일산서구 대화2로 137, 상가동 104호 (대화동, 대화마을)",
      "tel": "031-911-8961",
      "lat": "37.6731243211164",
      "lng": "126.736178247722"
    },
    {
      "name": "봄약국",
      "location": "경기도 고양시 일산동구 장백로 56, 204-2호 (백석동, 크리스탈빌딩)",
      "tel": "031-925-7890",
      "lat": "37.64306",
      "lng": "126.78686"
    },
    {
      "name": "사랑약국",
      "location": "경기도 고양시 일산서구 후곡로 19, 304호 (일산동, 평화프라자 )",
      "tel": "031-922-2646",
      "lat": "37.6793471452052",
      "lng": "126.763289742725"
    },
    {
      "name": "사랑플러스약국",
      "location": "경기도 고양시 일산동구 중앙로 1079, 백석역 더리브 스타일 1층 124호 (백석동)",
      "tel": "031-902-0229",
      "lat": "37.6450543770892",
      "lng": "126.784560867709"
    },
    {
      "name": "삼정약국",
      "location": "경기도 고양시 덕양구 중앙로 478, 103호 (행신동, 행신미원프라자)",
      "tel": "031-979-7003",
      "lat": "37.6194409889257",
      "lng": "126.842670223399"
    },
    {
      "name": "새사랑약국",
      "location": "경기도 고양시 일산서구 중앙로 1416, 201-1호 (주엽동, 한사랑빌딩)",
      "tel": "031-919-7948",
      "lat": "37.66981",
      "lng": "126.76284"
    },
    {
      "name": "수생약국",
      "location": "경기도 고양시 덕양구 원당로33번길 30 (주교동)",
      "tel": "031-966-0920",
      "lat": "37.65735950057",
      "lng": "126.830923606558"
    },
    {
      "name": "수정약국",
      "location": "경기도 고양시 덕양구 충장로 140, 303동 (행신동, 썬프라자)",
      "tel": "031-971-1242",
      "lat": "37.6247395805558",
      "lng": "126.835196627681"
    },
    {
      "name": "스마일약국",
      "location": "경기도 고양시 일산서구 호수로 817, 레이킨스몰 2층 242호 (대화동)",
      "tel": "031-925-7036",
      "lat": "37.6679852145335",
      "lng": "126.751647571454"
    },
    {
      "name": "시민약국",
      "location": "경기도 고양시 일산동구 고양대로 762, 104호 (중산동, 하늘빌딩)",
      "tel": "031-975-1712",
      "lat": "37.6818587413302",
      "lng": "126.780980857387"
    },
    {
      "name": "신중앙약국",
      "location": "경기도 고양시 덕양구 중앙로 550, 104호 (행신동, 삼일프라자)",
      "tel": "031-973-6630",
      "lat": "37.6234962016411",
      "lng": "126.836219086123"
    },
    {
      "name": "애플약국",
      "location": "경기도 고양시 일산서구 킨텍스로 217-23, 일산 더샵 그라비스타 102-10호 (대화동)",
      "tel": "031-923-0992",
      "lat": "37.6633699921025",
      "lng": "126.745620627625"
    },
    {
      "name": "연세약국",
      "location": "경기도 고양시 일산서구 중앙로 1371, 1층 61,62호 (주엽동, 뉴서울상가)",
      "tel": "031-915-0425",
      "lat": "37.6671243360506",
      "lng": "126.765471646111"
    },
    {
      "name": "열린약국",
      "location": "경기도 고양시 일산서구 일산로 523, 108호 (일산동, 보성상가)",
      "tel": "031-817-2348",
      "lat": "37.6766875993095",
      "lng": "126.769408135843"
    },
    {
      "name": "영재약국",
      "location": "경기도 고양시 덕양구 토당로 115 (토당동, 금호프라자)",
      "tel": "031-970-4577",
      "lat": "37.6254193067706",
      "lng": "126.816994100529"
    },
    {
      "name": "온누리시민약국",
      "location": "경기도 고양시 일산동구 중앙로 1228, 1(일부)층 (마두동, KT고양지사)",
      "tel": "031-901-1091",
      "lat": "37.6559804128513",
      "lng": "126.776148650626"
    },
    {
      "name": "온누리은하수약국",
      "location": "경기도 고양시 일산동구 강촌로 157, 303호 (마두동, 서울코아)",
      "tel": "031-901-9007",
      "lat": "37.6536709198969",
      "lng": "126.790973802547"
    },
    {
      "name": "원흥메디컬약국",
      "location": "경기도 고양시 덕양구 권율대로 685, 105호,106호 (원흥동)",
      "tel": "031-965-5757",
      "lat": "37.651201146031",
      "lng": "126.874037095241"
    },
    {
      "name": "유스약국",
      "location": "경기도 고양시 덕양구 동세로 63, 1층 (삼송동, 강남프라자)",
      "tel": "02-381-9475",
      "lat": "37.6481337296462",
      "lng": "126.88430918476"
    },
    {
      "name": "윤진약국",
      "location": "경기도 고양시 덕양구 중앙로 554, 103호 (행신동, 희성프라자)",
      "tel": "031-970-3648",
      "lat": "37.6237012384569",
      "lng": "126.83587495497"
    },
    {
      "name": "이편한온누리약국",
      "location": "경기도 고양시 일산서구 주화로 180, 104호 (대화동, 월드메르디앙)",
      "tel": "031-913-0066",
      "lat": "37.6745223777333",
      "lng": "126.749361317936"
    },
    {
      "name": "일산굿모닝약국",
      "location": "경기도 고양시 일산서구 호수로856번길 74-9, 1층 (대화동)",
      "tel": "031-925-3200",
      "lat": "37.6734565743097",
      "lng": "126.750448435319"
    },
    {
      "name": "일산선약국",
      "location": "경기도 고양시 일산서구 가좌1로 53, 110호 (가좌동, 샤르망프라자)",
      "tel": "031-923-0222",
      "lat": "37.6875074286465",
      "lng": "126.718908835182"
    },
    {
      "name": "정문온누리약국",
      "location": "경기도 고양시 일산동구 일산로 328, 103,104호 (마두동, 수색조합상가)",
      "tel": "031-906-6745",
      "lat": "37.66478",
      "lng": "126.78439"
    },
    {
      "name": "지성약국",
      "location": "경기도 고양시 일산서구 중앙로 1419, 102호 (주엽동, 정도프라자)",
      "tel": "031-917-2230",
      "lat": "37.6693126215225",
      "lng": "126.762270788765"
    },
    {
      "name": "참약사참약국",
      "location": "경기도 고양시 덕양구 동송로 63, 1층 103호 (삼송동)",
      "tel": "02-381-8275",
      "lat": "37.6522099712635",
      "lng": "126.895424538473"
    },
    {
      "name": "청구약국",
      "location": "경기도 고양시 일산동구 노루목로 107, 111호 (장항동, 청구APT상가)",
      "tel": "031-904-5882",
      "lat": "37.6500245317066",
      "lng": "126.777176291913"
    },
    {
      "name": "큰곰약국",
      "location": "경기도 고양시 덕양구 혜음로 9, 정호빌딩 1층 2,3호 (고양동)",
      "tel": "031-962-5685",
      "lat": "37.7015575209519",
      "lng": "126.901548892219"
    },
    {
      "name": "큰믿음약국",
      "location": "경기도 고양시 일산서구 호수로856번길 73-4, 1(좌측)층 (대화동)",
      "tel": "031-921-6622",
      "lat": "37.6738040131608",
      "lng": "126.749693476957"
    },
    {
      "name": "평강약국",
      "location": "경기도 고양시 덕양구 호국로 822, 1층 119호 (성사동, 명지캐럿86)",
      "tel": "031-818-7176",
      "lat": "37.6585273733508",
      "lng": "126.838856291472"
    },
    {
      "name": "푸른바다약국",
      "location": "경기도 고양시 일산서구 중앙로 1559, 107호 (대화동, 씨티타워)",
      "tel": "031-924-3110",
      "lat": "37.675418007671",
      "lng": "126.74820446417"
    },
    {
      "name": "풍동메디칼약국",
      "location": "경기도 고양시 일산동구 숲속마을1로 77, 106호 (풍동, 그린메디피아빌딩)",
      "tel": "031-909-5335",
      "lat": "37.6678591217592",
      "lng": "126.799867877215"
    },
    {
      "name": "한마음약국",
      "location": "경기도 고양시 덕양구 삼송로 12 (원흥동)",
      "tel": "031-963-1771",
      "lat": "37.6496166416452",
      "lng": "126.875530670502"
    },
    {
      "name": "행복약국",
      "location": "경기도 고양시 일산서구 일산로 538, 103호 (일산동, 일신2조합)",
      "tel": "031-915-7717",
      "lat": "37.677763292309",
      "lng": "126.76845078009"
    },
    {
      "name": "행복한약국",
      "location": "경기도 고양시 일산동구 강송로73번길 7-19, 1층 (백석동)",
      "tel": "031-908-7733",
      "lat": "37.6458431636843",
      "lng": "126.790805832474"
    },
    {
      "name": "향동온누리약국",
      "location": "경기도 고양시 덕양구 꽃마을로 4, 퍼스트타워 1층 (향동동)",
      "tel": "02-6371-0102",
      "lat": "37.5989084885086",
      "lng": "126.89239450845"
    }
  ],
  "date": "20230105"
}